{
"type": "FeatureCollection",
"name": "pang_markers",
"crs": { "type": "name", "properties": { "name": "urn:ogc:def:crs:OGC:1.3:CRS84" } },
"features": [
{ "type": "Feature", "properties": { "fid": 1, "Marker": "Airport", "Label": "Qikiqtarjuaq Airport", "Description": "The airport for the hamlet of Qikiqtarjuaq. Flights from Iqlauit pass through Pangnirtung and on to Qikiqtarjuaq.", "Image": null }, "geometry": { "type": "Point", "coordinates": [ -64.031246950411074, 67.546884040912417 ] } },
{ "type": "Feature", "properties": { "fid": 2, "Marker": "Airport", "Label": "Pangnirtung (Airport)", "Description": "The airport for the hamlet of Pangnirtung. Flights from Iqlauit pass through Pangnirtung and on to Qikiqtarjuaq.", "Image": null }, "geometry": { "type": "Point", "coordinates": [ -65.712201638659081, 66.14524523917423 ] } },
{ "type": "Feature", "properties": { "fid": 4, "Marker": "Landing", "Label": "North Pang  Landing Area", "Description": "Northern landing area.", "Image": null }, "geometry": { "type": "Point", "coordinates": [ -64.663275322259381, 67.010016406569861 ] } },
{ "type": "Feature", "properties": { "fid": 7, "Marker": "Warning", "Label": "Polar Bears", "Description": "Polar bears inhabit the shoreline. It is recommended that hikers do not linger or camp within 5 km of the northern shoreline.", "Image": null }, "geometry": { "type": "Point", "coordinates": [ -64.70159187869794, 66.973065661873164 ] } },
{ "type": "Feature", "properties": { "fid": 12, "Marker": "Cabin", "Label": "North Pang Cabin", "Description": "Most northern emergency shelter on the coast adjacent to the drop off\/pick up area.", "Image": "file:\/\/\/C:\\Users\\rosse\\Desktop\\ArcScratch\\pang_pass\\photos\\008_small.jpg" }, "geometry": { "type": "Point", "coordinates": [ -64.66364306, 67.00909389 ] } },
{ "type": "Feature", "properties": { "fid": 13, "Marker": "Cabin", "Label": "Owl River Cabin", "Description": "Emergency shelter on the Owl River.", "Image": "file:\/\/\/C:\\Users\\rosse\\Desktop\\ArcScratch\\pang_pass\\photos\\002_small.jpg" }, "geometry": { "type": "Point", "coordinates": [ -64.68090806, 66.89112889 ] } },
{ "type": "Feature", "properties": { "fid": 14, "Marker": "Cabin", "Label": "Glacier Lake Cabin", "Description": "Emergency shelter to the north of the slope leading to Glacier lake and the high point of the valley.", "Image": "file:\/\/\/C:\\Users\\rosse\\Desktop\\ArcScratch\\pang_pass\\photos\\006_small.jpg" }, "geometry": { "type": "Point", "coordinates": [ -64.97654694, 66.690865 ] } },
{ "type": "Feature", "properties": { "fid": 15, "Marker": "Cabin", "Label": "Summit Lake Cabin", "Description": "Emergency shelter adjacent to the Parks Canada operations cabin. Commands excellent views south down the valley.", "Image": "file:\/\/\/C:\\Users\\rosse\\Desktop\\ArcScratch\\pang_pass\\photos\\006_small.jpg" }, "geometry": { "type": "Point", "coordinates": [ -65.22961389, 66.61477694 ] } },
{ "type": "Feature", "properties": { "fid": 16, "Marker": "Cabin", "Label": "Thor Cabin", "Description": "Emergency shelter overlooking the popular viewpoint of Mount Thor.", "Image": null }, "geometry": { "type": "Point", "coordinates": [ -65.33379389, 66.55553389 ] } },
{ "type": "Feature", "properties": { "fid": 17, "Marker": "Cabin", "Label": "Windy Lakes Cabin", "Description": "Emergency shelter located on the eastern side of the Weasel River.", "Image": null }, "geometry": { "type": "Point", "coordinates": [ -65.48911306, 66.504265 ] } },
{ "type": "Feature", "properties": { "fid": 18, "Marker": "Cabin", "Label": "Overlord East Cabin", "Description": "Emergency shelter directly on the coast, adjacent to the high tide drop off\/pick up area.", "Image": null }, "geometry": { "type": "Point", "coordinates": [ -65.47914111, 66.39328806 ] } },
{ "type": "Feature", "properties": { "fid": 19, "Marker": "Cabin", "Label": "June Valley Cabin", "Description": "Emergency shelter along the June Valley.", "Image": null }, "geometry": { "type": "Point", "coordinates": [ -64.685160609729721, 66.766641981596194 ] } },
{ "type": "Feature", "properties": { "fid": 20, "Marker": "Cabin", "Label": "Ulu Cabin", "Description": "Emergency shelter close to the low tide drop off\/pick up area.", "Image": null }, "geometry": { "type": "Point", "coordinates": [ -65.489155125218517, 66.410675245557584 ] } },
{ "type": "Feature", "properties": { "fid": 21, "Marker": "Landing", "Label": "Overlord East Landing Area", "Description": "High tide landing area.", "Image": null }, "geometry": { "type": "Point", "coordinates": [ -65.477746188020319, 66.392476214248489 ] } },
{ "type": "Feature", "properties": { "fid": 22, "Marker": "Landing", "Label": "Overlord West Landing Area", "Description": "Low tide landing area.", "Image": null }, "geometry": { "type": "Point", "coordinates": [ -65.507768668086555, 66.381323879444139 ] } },
{ "type": "Feature", "properties": { "fid": 23, "Marker": "Warning", "Label": "Rundel River", "Description": "The Rundel River can be hazardous to cross during periods of high run off from the glacier.", "Image": null }, "geometry": { "type": "Point", "coordinates": [ -64.993399300534762, 66.688358512863275 ] } },
{ "type": "Feature", "properties": { "fid": 24, "Marker": "Info", "Label": "Circular Lake", "Description": "Part of glacier lake was cut off from the main body of water to create a beautiful circular pool.", "Image": "file:\/\/\/C:\\Users\\rosse\\Desktop\\ArcScratch\\pang_pass\\photos\\004_small.jpg" }, "geometry": { "type": "Point", "coordinates": [ -65.042282056539989, 66.694980828486038 ] } },
{ "type": "Feature", "properties": { "fid": 25, "Marker": "Warning", "Label": "Rockfall danger", "Description": "Potential rockfall hazard around Thor cabin. ", "Image": null }, "geometry": { "type": "Point", "coordinates": [ -65.33378237581573, 66.567034927243753 ] } },
{ "type": "Feature", "properties": { "fid": 26, "Marker": "Warning", "Label": "Weasel River", "Description": "The Weasel River can be extremely danderous to cross while water levels are high. If you wish to cross then look for sections of slow, shaller water.", "Image": null }, "geometry": { "type": "Point", "coordinates": [ -65.500661574164042, 66.500220998001154 ] } },
{ "type": "Feature", "properties": { "fid": 27, "Marker": "Landmark", "Label": "Rock Garden", "Description": "A small scenic area.", "Image": null }, "geometry": { "type": "Point", "coordinates": [ -65.460415657120819, 66.510375144843962 ] } },
{ "type": "Feature", "properties": { "fid": 28, "Marker": "Landmark", "Label": "The Sandcastle", "Description": "A large sandy moraine.", "Image": null }, "geometry": { "type": "Point", "coordinates": [ -65.469761905846255, 66.447833246033966 ] } },
{ "type": "Feature", "properties": { "fid": 29, "Marker": "Warning", "Label": "Potential for high winds", "Description": "The Windy Valley can experience extremely high winds. Camping is not recommend during windy conditions.", "Image": null }, "geometry": { "type": "Point", "coordinates": [ -65.444101666473401, 66.518497597537731 ] } },
{ "type": "Feature", "properties": { "fid": 30, "Marker": "Washroom", "Label": null, "Description": "Basic outhouse facility adjacent to cabin.", "Image": null }, "geometry": { "type": "Point", "coordinates": [ -64.66356899869578, 67.009094233709106 ] } },
{ "type": "Feature", "properties": { "fid": 31, "Marker": "Washroom", "Label": null, "Description": "Basic outhouse facility adjacent to cabin.", "Image": null }, "geometry": { "type": "Point", "coordinates": [ -64.68094394154808, 66.891128685184469 ] } },
{ "type": "Feature", "properties": { "fid": 32, "Marker": "Washroom", "Label": null, "Description": "Basic outhouse facility adjacent to cabin.", "Image": null }, "geometry": { "type": "Point", "coordinates": [ -64.685122366103741, 66.766641981592855 ] } },
{ "type": "Feature", "properties": { "fid": 33, "Marker": "Washroom", "Label": null, "Description": "Basic outhouse facility adjacent to cabin.", "Image": null }, "geometry": { "type": "Point", "coordinates": [ -64.976479580206103, 66.690867788188896 ] } },
{ "type": "Feature", "properties": { "fid": 34, "Marker": "Washroom", "Label": null, "Description": "Basic outhouse facility adjacent to cabin.", "Image": null }, "geometry": { "type": "Point", "coordinates": [ -65.229473194363308, 66.614771608127398 ] } },
{ "type": "Feature", "properties": { "fid": 35, "Marker": "Operational Cabin", "Label": "Parks Canada - Summit Lake", "Description": "Use of this cabin is restrcted to Parks Canada staff. No access to hikers.", "Image": null }, "geometry": { "type": "Point", "coordinates": [ -65.229692786796434, 66.614781477450222 ] } },
{ "type": "Feature", "properties": { "fid": 36, "Marker": "Washroom", "Label": null, "Description": "Basic outhouse facility adjacent to cabin.", "Image": null }, "geometry": { "type": "Point", "coordinates": [ -65.333647597893162, 66.555535932465844 ] } },
{ "type": "Feature", "properties": { "fid": 37, "Marker": "Washroom", "Label": null, "Description": "Basic outhouse facility adjacent to cabin.", "Image": null }, "geometry": { "type": "Point", "coordinates": [ -65.489094367221298, 66.504262333002231 ] } },
{ "type": "Feature", "properties": { "fid": 38, "Marker": "Washroom", "Label": null, "Description": null, "Image": null }, "geometry": { "type": "Point", "coordinates": [ -65.479064667889247, 66.393286732373056 ] } },
{ "type": "Feature", "properties": { "fid": 39, "Marker": "Washroom", "Label": null, "Description": "Basic outhouse facility adjacent to cabin.", "Image": null }, "geometry": { "type": "Point", "coordinates": [ -65.489003075985082, 66.410676479210053 ] } },
{ "type": "Feature", "properties": { "fid": 40, "Marker": "Landmark", "Label": "Mount Odin", "Description": null, "Image": "file:\/\/\/C:\\Users\\rosse\\Desktop\\ArcScratch\\pang_pass\\photos\\Mount_Odin.jpg" }, "geometry": { "type": "Point", "coordinates": [ -65.428957684329163, 66.546751486938646 ] } },
{ "type": "Feature", "properties": { "fid": 41, "Marker": "Landmark", "Label": "Breidablik Peak", "Description": null, "Image": "file:\/\/\/C:\\Users\\rosse\\Desktop\\ArcScratch\\pang_pass\\photos\\Breidablik_Peak.jpg" }, "geometry": { "type": "Point", "coordinates": [ -65.24234943295049, 66.573611426719225 ] } },
{ "type": "Feature", "properties": { "fid": 42, "Marker": "Landmark", "Label": "Thor Peak", "Description": null, "Image": "file:\/\/\/C:\\Users\\rosse\\Desktop\\ArcScratch\\pang_pass\\photos\\Mount_Thor.jpg" }, "geometry": { "type": "Point", "coordinates": [ -65.319912789119954, 66.538298432809739 ] } },
{ "type": "Feature", "properties": { "fid": 43, "Marker": "Landmark", "Label": "Mount Asgard", "Description": null, "Image": "file:\/\/\/C:\\Users\\rosse\\Desktop\\ArcScratch\\pang_pass\\photos\\Mount_Asgard.jpg" }, "geometry": { "type": "Point", "coordinates": [ -65.274422337917073, 66.672553406558663 ] } },
{ "type": "Feature", "properties": { "fid": 44, "Marker": "Landmark", "Label": "Highway Glacier (Penny Ice Cap)", "Description": "This glacier extends north to join the main body of the Penny Ice Cap.", "Image": null }, "geometry": { "type": "Point", "coordinates": [ -65.041130964559002, 66.726223591504208 ] } },
{ "type": "Feature", "properties": { "fid": 45, "Marker": "Info", "Label": "Icebergs", "Description": "Icebergs are a common sight on the approach from the north side of the valley.", "Image": "file:\/\/\/C:\\Users\\rosse\\Desktop\\ArcScratch\\pang_pass\\photos\\010_small.jpg" }, "geometry": { "type": "Point", "coordinates": [ -64.598174865586344, 67.129944091832357 ] } },
{ "type": "Feature", "properties": { "fid": 46, "Marker": "Info", "Label": "June Valley", "Description": "Scenic view looking north up the June and Owl river valleys", "Image": "file:\/\/\/C:\\Users\\rosse\\Desktop\\ArcScratch\\pang_pass\\photos\\003_small.jpg" }, "geometry": { "type": "Point", "coordinates": [ -64.863361102851385, 66.71267652433049 ] } },
{ "type": "Feature", "properties": { "fid": 47, "Marker": "Info", "Label": "Sandbanks", "Description": "Some dried up stretches of the Owl River provide great walking on hard packed sand. ", "Image": "file:\/\/\/C:\\Users\\rosse\\Desktop\\ArcScratch\\pang_pass\\photos\\009_small.jpg" }, "geometry": { "type": "Point", "coordinates": [ -64.66779060153884, 66.802289975678804 ] } },
{ "type": "Feature", "properties": { "fid": 48, "Marker": "Info", "Label": "Mount Asgard Lookout", "Description": "This location provides the best (and closest) view of Mount Asgard from the valley. South of this point the mountain is no longer visible.", "Image": "file:\/\/\/C:\\Users\\rosse\\Desktop\\ArcScratch\\pang_pass\\photos\\005_small.jpg" }, "geometry": { "type": "Point", "coordinates": [ -65.070143154905296, 66.700991246092997 ] } },
{ "type": "Feature", "properties": { "fid": 49, "Marker": "Info", "Label": "Mount Thor lookout", "Description": "General area to have the best view of the Thor peak.", "Image": "file:\/\/\/C:\\Users\\rosse\\Desktop\\ArcScratch\\pang_pass\\photos\\007_small.jpg" }, "geometry": { "type": "Point", "coordinates": [ -65.281583527337688, 66.587296647025525 ] } }
]
}
